{
"type": "FeatureCollection",
                                                                                
"features": [
{ "type": "Feature", "id": 1, "properties": { "Name": "Lookers Rayleigh", "Postcode": "SS6 7UQ ", "lon": 0.604712, "lat": 51.576056 }, "geometry": { "type": "Point", "coordinates": [ 0.6047125, 51.5760563 ] } },
{ "type": "Feature", "id": 2, "properties": { "Name": "Lookers Rayleigh", "Postcode": "SS6 7UQ ", "lon": 0.604712, "lat": 51.576056 }, "geometry": { "type": "Point", "coordinates": [ 0.6047125, 51.5760563 ] } },
{ "type": "Feature", "id": 3, "properties": { "Name": "Wilson's Aberdare", "Postcode": "CF44 0AG ", "lon": -3.413548, "lat": 51.701424 }, "geometry": { "type": "Point", "coordinates": [ -3.4135482, 51.7014242 ] } },
{ "type": "Feature", "id": 4, "properties": { "Name": "Arnold Clark (Aberdeen)", "Postcode": "AB12 3BJ ", "lon": -2.089088, "lat": 57.124648 }, "geometry": { "type": "Point", "coordinates": [ -2.0890879, 57.1246479 ] } },
{ "type": "Feature", "id": 5, "properties": { "Name": "RRG Altrincham", "Postcode": "WA14 5PW ", "lon": -2.348539, "lat": 53.405651 }, "geometry": { "type": "Point", "coordinates": [ -2.3485389, 53.4056514 ] } },
{ "type": "Feature", "id": 6, "properties": { "Name": "B & M Motors", "Postcode": "HP7 0HL ", "lon": -0.614707, "lat": 51.666286 }, "geometry": { "type": "Point", "coordinates": [ -0.6147072, 51.6662855 ] } },
{ "type": "Feature", "id": 7, "properties": { "Name": "Motorline Ashford", "Postcode": "TN24 0SN ", "lon": 0.898514, "lat": 51.128132 }, "geometry": { "type": "Point", "coordinates": [ 0.8985142, 51.128132099999988 ] } },
{ "type": "Feature", "id": 8, "properties": { "Name": "Dingle's Toyota (Attleborough)", "Postcode": "NR17 1NB ", "lon": 1.025983, "lat": 52.510173 }, "geometry": { "type": "Point", "coordinates": [ 1.0259828, 52.5101726 ] } },
{ "type": "Feature", "id": 9, "properties": { "Name": "Steven Eagell Toyota (Aylesbury)", "Postcode": "HP22 5TE ", "lon": -0.780475, "lat": 51.792666 }, "geometry": { "type": "Point", "coordinates": [ -0.7804752, 51.7926659 ] } },
{ "type": "Feature", "id": 10, "properties": { "Name": "Arnold Clark Ayr", "Postcode": "KA8 9RT ", "lon": -4.587430, "lat": 55.477612 }, "geometry": { "type": "Point", "coordinates": [ -4.5874304, 55.4776115 ] } },
{ "type": "Feature", "id": 11, "properties": { "Name": "Curtis Toyota Ballymena", "Postcode": "BT42 3HB ", "lon": -6.260918, "lat": 54.850502 }, "geometry": { "type": "Point", "coordinates": [ -6.2609185, 54.8505021 ] } },
{ "type": "Feature", "id": 12, "properties": { "Name": "Pentagon Barnsley", "Postcode": "S75 2RS ", "lon": -1.513655, "lat": 53.562893 }, "geometry": { "type": "Point", "coordinates": [ -1.5136554, 53.5628932 ] } },
{ "type": "Feature", "id": 13, "properties": { "Name": "Roundswell Toyota", "Postcode": "EX31 3TA ", "lon": -4.084329, "lat": 51.064094 }, "geometry": { "type": "Point", "coordinates": [ -4.0843288, 51.064094399999988 ] } },
{ "type": "Feature", "id": 14, "properties": { "Name": "Inchcape (Basingstoke)", "Postcode": "RG21 2YH ", "lon": -1.087508, "lat": 51.263380 }, "geometry": { "type": "Point", "coordinates": [ -1.0875079, 51.26338 ] } },
{ "type": "Feature", "id": 15, "properties": { "Name": "Platinum Bath", "Postcode": "BA2 3DN ", "lon": -2.368525, "lat": 51.379267 }, "geometry": { "type": "Point", "coordinates": [ -2.3685251, 51.3792674 ] } },
{ "type": "Feature", "id": 16, "properties": { "Name": "Inchcape (Battersea)", "Postcode": "SW8 4AH ", "lon": -0.143360, "lat": 51.476901 }, "geometry": { "type": "Point", "coordinates": [ -0.1433596, 51.4769011 ] } },
{ "type": "Feature", "id": 17, "properties": { "Name": "Charles Hurst Toyota Belfast", "Postcode": "BT12 6LR ", "lon": -5.969013, "lat": 54.573363 }, "geometry": { "type": "Point", "coordinates": [ -5.9690129, 54.5733626 ] } },
{ "type": "Feature", "id": 18, "properties": { "Name": "Arnold Clark (Glasgow)", "Postcode": "G64 2AL ", "lon": -4.231109, "lat": 55.898911 }, "geometry": { "type": "Point", "coordinates": [ -4.2311087, 55.8989114 ] } },
{ "type": "Feature", "id": 19, "properties": { "Name": "Hills of Bishops Stortford", "Postcode": "CM23 5HW ", "lon": 0.175812, "lat": 51.869285 }, "geometry": { "type": "Point", "coordinates": [ 0.1758118, 51.8692849 ] } },
{ "type": "Feature", "id": 20, "properties": { "Name": "Vantage Toyota Blackburn", "Postcode": "BB1 3NU ", "lon": -2.450482, "lat": 53.762436 }, "geometry": { "type": "Point", "coordinates": [ -2.450482, 53.7624357 ] } },
{ "type": "Feature", "id": 21, "properties": { "Name": "Harry Feeney", "Postcode": "FY3 8AR ", "lon": -3.038271, "lat": 53.823468 }, "geometry": { "type": "Point", "coordinates": [ -3.0382707, 53.823468299999988 ] } },
{ "type": "Feature", "id": 22, "properties": { "Name": "RRG Bolton", "Postcode": "BL2 2BN ", "lon": -2.418070, "lat": 53.579463 }, "geometry": { "type": "Point", "coordinates": [ -2.4180696, 53.5794632 ] } },
{ "type": "Feature", "id": 23, "properties": { "Name": "Johnsons Toyota Liverpool", "Postcode": "L20 4TX ", "lon": -3.004171, "lat": 53.453901 }, "geometry": { "type": "Point", "coordinates": [ -3.0041714, 53.4539014 ] } },
{ "type": "Feature", "id": 24, "properties": { "Name": "Listers Boston", "Postcode": "PE21 6PA ", "lon": -0.021616, "lat": 52.982068 }, "geometry": { "type": "Point", "coordinates": [ -0.0216161, 52.9820682 ] } },
{ "type": "Feature", "id": 25, "properties": { "Name": "Westover", "Postcode": "BH11 8PT ", "lon": -1.928800, "lat": 50.753038 }, "geometry": { "type": "Point", "coordinates": [ -1.9288003, 50.7530384 ] } },
{ "type": "Feature", "id": 26, "properties": { "Name": "Octagon Bracknell", "Postcode": "RG12 8TN ", "lon": -0.786785, "lat": 51.415437 }, "geometry": { "type": "Point", "coordinates": [ -0.7867851, 51.415436799999988 ] } },
{ "type": "Feature", "id": 27, "properties": { "Name": "Caledonian Toyota", "Postcode": "IM2 2SA ", "lon": -4.468497, "lat": 54.159776 }, "geometry": { "type": "Point", "coordinates": [ -4.4684966, 54.1597763 ] } },
{ "type": "Feature", "id": 28, "properties": { "Name": "West Riding Toyota Bradford", "Postcode": "BD1 4SF ", "lon": -1.757192, "lat": 53.808409 }, "geometry": { "type": "Point", "coordinates": [ -1.7571916, 53.8084091 ] } },
{ "type": "Feature", "id": 29, "properties": { "Name": "Currie Motors (Great West Road)", "Postcode": "TW8 9DP ", "lon": -0.308735, "lat": 51.490508 }, "geometry": { "type": "Point", "coordinates": [ -0.3087347, 51.4905085 ] } },
{ "type": "Feature", "id": 30, "properties": { "Name": "Currie Motors (Great West Road)", "Postcode": "TW8 9DP ", "lon": -0.308735, "lat": 51.490508 }, "geometry": { "type": "Point", "coordinates": [ -0.3087347, 51.4905085 ] } },
{ "type": "Feature", "id": 31, "properties": { "Name": "Toyota World (Bridgend)", "Postcode": "CF31 4LH ", "lon": -3.585780, "lat": 51.514438 }, "geometry": { "type": "Point", "coordinates": [ -3.5857801, 51.514437699999988 ] } },
{ "type": "Feature", "id": 32, "properties": { "Name": "Bridlington Toyota", "Postcode": "YO15 3AA ", "lon": -0.194962, "lat": 54.084424 }, "geometry": { "type": "Point", "coordinates": [ -0.1949619, 54.084424 ] } },
{ "type": "Feature", "id": 33, "properties": { "Name": "Yeomans (Brighton)", "Postcode": "BN10 7HH ", "lon": -0.013606, "lat": 50.793524 }, "geometry": { "type": "Point", "coordinates": [ -0.0136063, 50.7935238 ] } },
{ "type": "Feature", "id": 34, "properties": { "Name": "Toyota World (Bristol South)", "Postcode": "BS4 3QB ", "lon": -2.555692, "lat": 51.446047 }, "geometry": { "type": "Point", "coordinates": [ -2.5556917, 51.4460475 ] } },
{ "type": "Feature", "id": 35, "properties": { "Name": "Toyota World (Bristol North)", "Postcode": "BS34 5BB ", "lon": -2.568043, "lat": 51.531076 }, "geometry": { "type": "Point", "coordinates": [ -2.5680434, 51.5310756 ] } },
{ "type": "Feature", "id": 36, "properties": { "Name": "Richard Tebbutt", "Postcode": "MK43 8PT ", "lon": -0.529966, "lat": 52.145170 }, "geometry": { "type": "Point", "coordinates": [ -0.529966, 52.145170099999987 ] } },
{ "type": "Feature", "id": 37, "properties": { "Name": "Jemca (Bromley)", "Postcode": "BR1 5TD ", "lon": 0.022362, "lat": 51.422136 }, "geometry": { "type": "Point", "coordinates": [ 0.0223617, 51.4221364 ] } },
{ "type": "Feature", "id": 38, "properties": { "Name": "Westlands Bromsgrove", "Postcode": "B60 3AJ ", "lon": -2.065512, "lat": 52.314895 }, "geometry": { "type": "Point", "coordinates": [ -2.0655122, 52.314895 ] } },
{ "type": "Feature", "id": 39, "properties": { "Name": "North Road Garage", "Postcode": "LD2 3SS ", "lon": -3.401768, "lat": 52.152675 }, "geometry": { "type": "Point", "coordinates": [ -3.4017681, 52.1526753 ] } },
{ "type": "Feature", "id": 40, "properties": { "Name": "Inchcape (Burton)", "Postcode": "DE14 3SU ", "lon": -1.639744, "lat": 52.802426 }, "geometry": { "type": "Point", "coordinates": [ -1.6397435, 52.8024256 ] } },
{ "type": "Feature", "id": 41, "properties": { "Name": "RRG Bury", "Postcode": "BL9 0EY ", "lon": -2.299726, "lat": 53.593346 }, "geometry": { "type": "Point", "coordinates": [ -2.2997265, 53.5933459 ] } },
{ "type": "Feature", "id": 42, "properties": { "Name": "Bury St Edmunds Toyota", "Postcode": "IP33 1TB ", "lon": 0.709969, "lat": 52.250448 }, "geometry": { "type": "Point", "coordinates": [ 0.7099689, 52.2504481 ] } },
{ "type": "Feature", "id": 43, "properties": { "Name": "Cambridge Toyota", "Postcode": "CB1 3LH ", "lon": 0.167414, "lat": 52.195686 }, "geometry": { "type": "Point", "coordinates": [ 0.1674139, 52.1956861 ] } },
{ "type": "Feature", "id": 44, "properties": { "Name": "Cambridge Toyota", "Postcode": "CB1 3LH ", "lon": 0.167414, "lat": 52.195686 }, "geometry": { "type": "Point", "coordinates": [ 0.1674139, 52.1956861 ] } },
{ "type": "Feature", "id": 45, "properties": { "Name": "Motorline Canterbury", "Postcode": "CT2 7RB ", "lon": 1.099143, "lat": 51.296429 }, "geometry": { "type": "Point", "coordinates": [ 1.0991431, 51.2964289 ] } },
{ "type": "Feature", "id": 46, "properties": { "Name": "Toyota World (Cardiff)", "Postcode": "CF11 8AQ ", "lon": -3.200817, "lat": 51.466822 }, "geometry": { "type": "Point", "coordinates": [ -3.2008173, 51.4668224 ] } },
{ "type": "Feature", "id": 47, "properties": { "Name": "Border Toyota (Carlisle)", "Postcode": "CA3 0RJ ", "lon": -2.930567, "lat": 54.914912 }, "geometry": { "type": "Point", "coordinates": [ -2.9305668, 54.9149121 ] } },
{ "type": "Feature", "id": 48, "properties": { "Name": "Lookers Chelmsford", "Postcode": "CM2 6PY ", "lon": 0.505250, "lat": 51.744803 }, "geometry": { "type": "Point", "coordinates": [ 0.5052496, 51.7448034 ] } },
{ "type": "Feature", "id": 49, "properties": { "Name": "Brooklyn Toyota Cheltenham", "Postcode": "GL51 9DS ", "lon": -2.094301, "lat": 51.911120 }, "geometry": { "type": "Point", "coordinates": [ -2.0943006, 51.911120100000012 ] } },
{ "type": "Feature", "id": 50, "properties": { "Name": "Carr & Griffiths", "Postcode": "CH3 9DS ", "lon": -2.805642, "lat": 53.122157 }, "geometry": { "type": "Point", "coordinates": [ -2.8056417, 53.1221571 ] } },
{ "type": "Feature", "id": 51, "properties": { "Name": "Gordon Lamb Chesterfield", "Postcode": "S41 7HY ", "lon": -1.427912, "lat": 53.250230 }, "geometry": { "type": "Point", "coordinates": [ -1.4279118, 53.2502295 ] } },
{ "type": "Feature", "id": 52, "properties": { "Name": "WKB Toyota Chichester", "Postcode": "PO19 7JW ", "lon": -0.768025, "lat": 50.836602 }, "geometry": { "type": "Point", "coordinates": [ -0.7680253, 50.836602 ] } },
{ "type": "Feature", "id": 53, "properties": { "Name": "Colchester Toyota", "Postcode": "CO2 9JS ", "lon": 0.866078, "lat": 51.870073 }, "geometry": { "type": "Point", "coordinates": [ 0.8660776, 51.8700729 ] } },
{ "type": "Feature", "id": 54, "properties": { "Name": "Curtis Cars", "Postcode": "BT51 3LL ", "lon": -6.680352, "lat": 55.117879 }, "geometry": { "type": "Point", "coordinates": [ -6.6803518, 55.1178788 ] } },
{ "type": "Feature", "id": 55, "properties": { "Name": "Vantage Toyota Colne", "Postcode": "BB8 9HH ", "lon": -2.171054, "lat": 53.859475 }, "geometry": { "type": "Point", "coordinates": [ -2.1710543, 53.859475499999988 ] } },
{ "type": "Feature", "id": 56, "properties": { "Name": "Mid Ulster Cars", "Postcode": "BT80 8TL ", "lon": -6.741285, "lat": 54.630200 }, "geometry": { "type": "Point", "coordinates": [ -6.741285, 54.6301995 ] } },
{ "type": "Feature", "id": 57, "properties": { "Name": "Pinewood Coulsdon", "Postcode": "CR5 2NJ ", "lon": -0.136934, "lat": 51.321658 }, "geometry": { "type": "Point", "coordinates": [ -0.1369339, 51.321657599999988 ] } },
{ "type": "Feature", "id": 58, "properties": { "Name": "Listers Toyota (Coventry)", "Postcode": "CV3 4FJ ", "lon": -1.465852, "lat": 52.372863 }, "geometry": { "type": "Point", "coordinates": [ -1.4658524, 52.372862899999987 ] } },
{ "type": "Feature", "id": 60, "properties": { "Name": "Johnson", "Postcode": "CM7 8GA ", "lon": 0.454978, "lat": 51.957140 }, "geometry": { "type": "Point", "coordinates": [ 0.4549777, 51.9571397 ] } },
{ "type": "Feature", "id": 61, "properties": { "Name": "Jemca (Croydon)", "Postcode": "CR0 4RF ", "lon": -0.118238, "lat": 51.361152 }, "geometry": { "type": "Point", "coordinates": [ -0.1182383, 51.3611517 ] } },
{ "type": "Feature", "id": 62, "properties": { "Name": "Jemca (Croydon)", "Postcode": "CR0 4RR ", "lon": -0.120584, "lat": 51.357179 }, "geometry": { "type": "Point", "coordinates": [ -0.1205843, 51.3571786 ] } },
{ "type": "Feature", "id": 63, "properties": { "Name": "RMB Toyota (Darlington)", "Postcode": "DL1 1XP ", "lon": -1.523028, "lat": 54.530589 }, "geometry": { "type": "Point", "coordinates": [ -1.5230285, 54.530589199999987 ] } },
{ "type": "Feature", "id": 64, "properties": { "Name": "Lindop Bros Queensferry", "Postcode": "CH5 2TE ", "lon": -3.017482, "lat": 53.209052 }, "geometry": { "type": "Point", "coordinates": [ -3.017482, 53.2090524 ] } },
{ "type": "Feature", "id": 65, "properties": { "Name": "RRG Denton", "Postcode": "M34 3SH ", "lon": -2.133432, "lat": 53.455334 }, "geometry": { "type": "Point", "coordinates": [ -2.1334317, 53.455334099999988 ] } },
{ "type": "Feature", "id": 66, "properties": { "Name": "Inchcape (Derby)", "Postcode": "DE24 8BX ", "lon": -1.451761, "lat": 52.910129 }, "geometry": { "type": "Point", "coordinates": [ -1.4517612, 52.9101289 ] } },
{ "type": "Feature", "id": 67, "properties": { "Name": "Pentagon Doncaster", "Postcode": "DN2 4LT ", "lon": -1.120062, "lat": 53.538597 }, "geometry": { "type": "Point", "coordinates": [ -1.1200618, 53.5385971 ] } },
{ "type": "Feature", "id": 68, "properties": { "Name": "Loders Dorchester", "Postcode": "DT1 1XU ", "lon": -2.441497, "lat": 50.718950 }, "geometry": { "type": "Point", "coordinates": [ -2.4414972, 50.7189504 ] } },
{ "type": "Feature", "id": 69, "properties": { "Name": "Border Toyota (Dumfries)", "Postcode": "DG1 3NU ", "lon": -3.580400, "lat": 55.104673 }, "geometry": { "type": "Point", "coordinates": [ -3.5804001, 55.104673 ] } },
{ "type": "Feature", "id": 70, "properties": { "Name": "Struan Dundee", "Postcode": "DD4 9FF ", "lon": -2.946799, "lat": 56.494875 }, "geometry": { "type": "Point", "coordinates": [ -2.9467986, 56.494875 ] } },
{ "type": "Feature", "id": 72, "properties": { "Name": "Minories Durham", "Postcode": "DH1 2HN ", "lon": -1.538575, "lat": 54.782333 }, "geometry": { "type": "Point", "coordinates": [ -1.538575, 54.7823327 ] } },
{ "type": "Feature", "id": 73, "properties": { "Name": "Currie Motors (Barnet)", "Postcode": "EN4 8SN ", "lon": -0.163861, "lat": 51.644645 }, "geometry": { "type": "Point", "coordinates": [ -0.1638613, 51.6446447 ] } },
{ "type": "Feature", "id": 74, "properties": { "Name": "Yeomans (Eastbourne)", "Postcode": "BN23 8AS ", "lon": 0.288698, "lat": 50.797660 }, "geometry": { "type": "Point", "coordinates": [ 0.2886981, 50.7976603 ] } },
{ "type": "Feature", "id": 75, "properties": { "Name": "Western Toyota Edinburgh West", "Postcode": "EH11 4DG ", "lon": -3.303740, "lat": 55.924617 }, "geometry": { "type": "Point", "coordinates": [ -3.3037404, 55.924616699999987 ] } },
{ "type": "Feature", "id": 76, "properties": { "Name": "Western Toyota Edinburgh East", "Postcode": "EH16 4TE ", "lon": -3.155936, "lat": 55.927494 }, "geometry": { "type": "Point", "coordinates": [ -3.1559361, 55.9274944 ] } },
{ "type": "Feature", "id": 77, "properties": { "Name": "Donnelly & Taggart", "Postcode": "BT47 3DN ", "lon": -7.202779, "lat": 55.031211 }, "geometry": { "type": "Point", "coordinates": [ -7.2027793, 55.031211 ] } },
{ "type": "Feature", "id": 78, "properties": { "Name": "Alexander Wallace", "Postcode": "IV30 6NG ", "lon": -3.290801, "lat": 57.648850 }, "geometry": { "type": "Point", "coordinates": [ -3.2908006, 57.6488497 ] } },
{ "type": "Feature", "id": 79, "properties": { "Name": "Western Cars", "Postcode": "BT74 7JY ", "lon": -7.647793, "lat": 54.342078 }, "geometry": { "type": "Point", "coordinates": [ -7.6477932, 54.342078099999988 ] } },
{ "type": "Feature", "id": 80, "properties": { "Name": "Toyota World (Birmingham)", "Postcode": "B24 9HF ", "lon": -1.818671, "lat": 52.509122 }, "geometry": { "type": "Point", "coordinates": [ -1.8186712, 52.509122 ] } },
{ "type": "Feature", "id": 81, "properties": { "Name": "Marsh Toyota", "Postcode": "EX2 8NP ", "lon": -3.524751, "lat": 50.701287 }, "geometry": { "type": "Point", "coordinates": [ -3.5247507, 50.701287099999988 ] } },
{ "type": "Feature", "id": 82, "properties": { "Name": "SDM", "Postcode": "FK2 9AU ", "lon": -3.772162, "lat": 56.002483 }, "geometry": { "type": "Point", "coordinates": [ -3.7721621, 56.002483299999987 ] } },
{ "type": "Feature", "id": 83, "properties": { "Name": "Inchcape (Farnham)", "Postcode": "GU10 3NY ", "lon": -0.791410, "lat": 51.197703 }, "geometry": { "type": "Point", "coordinates": [ -0.7914101, 51.1977026 ] } },
{ "type": "Feature", "id": 84, "properties": { "Name": "Coronation Toyota", "Postcode": "CO13 0LB ", "lon": 1.221855, "lat": 51.841919 }, "geometry": { "type": "Point", "coordinates": [ 1.2218545, 51.841918799999988 ] } },
{ "type": "Feature", "id": 85, "properties": { "Name": "Hodgson Toyota Gateshead", "Postcode": "NE16 3BL ", "lon": -1.685501, "lat": 54.961290 }, "geometry": { "type": "Point", "coordinates": [ -1.6855012, 54.9612898 ] } },
{ "type": "Feature", "id": 86, "properties": { "Name": "Beadles Toyota (Medway)", "Postcode": "ME8 0PZ ", "lon": 0.570824, "lat": 51.365843 }, "geometry": { "type": "Point", "coordinates": [ 0.5708239, 51.3658426 ] } },
{ "type": "Feature", "id": 87, "properties": { "Name": "Shields Toyota", "Postcode": "G53 7RA ", "lon": -4.347065, "lat": 55.810401 }, "geometry": { "type": "Point", "coordinates": [ -4.3470655, 55.810401 ] } },
{ "type": "Feature", "id": 88, "properties": { "Name": "Brooklyn Toyota Gloucester", "Postcode": "GL2 5FE ", "lon": -2.270155, "lat": 51.837823 }, "geometry": { "type": "Point", "coordinates": [ -2.270155, 51.8378232 ] } },
{ "type": "Feature", "id": 89, "properties": { "Name": "Batemans", "Postcode": "LA11 6EE ", "lon": -2.903688, "lat": 54.196711 }, "geometry": { "type": "Point", "coordinates": [ -2.9036885, 54.196711099999987 ] } },
{ "type": "Feature", "id": 90, "properties": { "Name": "Listers Grantham", "Postcode": "NG31 7UH ", "lon": -0.634787, "lat": 52.890569 }, "geometry": { "type": "Point", "coordinates": [ -0.6347867, 52.8905695 ] } },
{ "type": "Feature", "id": 91, "properties": { "Name": "Currie Motors (Twickenham)", "Postcode": "TW1 1ER ", "lon": -0.332550, "lat": 51.455240 }, "geometry": { "type": "Point", "coordinates": [ -0.3325498, 51.4552398 ] } },
{ "type": "Feature", "id": 92, "properties": { "Name": "John Roe (Motor Sales)", "Postcode": "DN31 2BA ", "lon": -0.101149, "lat": 53.565756 }, "geometry": { "type": "Point", "coordinates": [ -0.1011492, 53.5657562 ] } },
{ "type": "Feature", "id": 93, "properties": { "Name": "Freelance Motors (Guernsey)", "Postcode": "GY3 5PA ", "lon": -2.544322, "lat": 49.502847 }, "geometry": { "type": "Point", "coordinates": [ -2.5443224, 49.5028471 ] } },
{ "type": "Feature", "id": 94, "properties": { "Name": "Inchcape (Guildford)", "Postcode": "GU1 1TB ", "lon": -0.560835, "lat": 51.260622 }, "geometry": { "type": "Point", "coordinates": [ -0.5608354, 51.260622299999987 ] } },
{ "type": "Feature", "id": 95, "properties": { "Name": "Western Toyota Dunfermline", "Postcode": "KY11 7EG ", "lon": -3.394109, "lat": 56.081640 }, "geometry": { "type": "Point", "coordinates": [ -3.3941091, 56.0816399 ] } },
{ "type": "Feature", "id": 96, "properties": { "Name": "Mount Automotive Solutions", "Postcode": "HX1 2TH ", "lon": -1.868577, "lat": 53.720968 }, "geometry": { "type": "Point", "coordinates": [ -1.8685772, 53.7209675 ] } },
{ "type": "Feature", "id": 97, "properties": { "Name": "Shields Toyota (Hamilton)", "Postcode": "ML3 0EJ ", "lon": -4.070422, "lat": 55.791825 }, "geometry": { "type": "Point", "coordinates": [ -4.0704217, 55.7918253 ] } },
{ "type": "Feature", "id": 98, "properties": { "Name": "Twin Spark Hampstead", "Postcode": "NW2 2HL ", "lon": -0.195548, "lat": 51.561121 }, "geometry": { "type": "Point", "coordinates": [ -0.195548, 51.5611207 ] } },
{ "type": "Feature", "id": 99, "properties": { "Name": "Harlech Toyota", "Postcode": "LL46 2PS ", "lon": -4.112741, "lat": 52.853684 }, "geometry": { "type": "Point", "coordinates": [ -4.1127408, 52.8536844 ] } },
{ "type": "Feature", "id": 100, "properties": { "Name": "FRF Motors (Haverfordwest)", "Postcode": "SA61 2XG ", "lon": -4.952378, "lat": 51.804986 }, "geometry": { "type": "Point", "coordinates": [ -4.9523782, 51.8049858 ] } },
{ "type": "Feature", "id": 101, "properties": { "Name": "Kings Toyota Hedge End", "Postcode": "SO30 2RA ", "lon": -1.305471, "lat": 50.922986 }, "geometry": { "type": "Point", "coordinates": [ -1.3054715, 50.9229864 ] } },
{ "type": "Feature", "id": 102, "properties": { "Name": "Helensburgh Toyota", "Postcode": "G84 8BA ", "lon": -4.739000, "lat": 56.004464 }, "geometry": { "type": "Point", "coordinates": [ -4.7390002, 56.004463599999987 ] } },
{ "type": "Feature", "id": 103, "properties": { "Name": "Parklands Helston", "Postcode": "TR13 8PJ ", "lon": -5.266970, "lat": 50.104025 }, "geometry": { "type": "Point", "coordinates": [ -5.2669705, 50.1040251 ] } },
{ "type": "Feature", "id": 104, "properties": { "Name": "Coxon", "Postcode": "RG9 1HG ", "lon": -0.895528, "lat": 51.529360 }, "geometry": { "type": "Point", "coordinates": [ -0.8955277, 51.529359799999988 ] } },
{ "type": "Feature", "id": 105, "properties": { "Name": "HTC", "Postcode": "HR1 3RX ", "lon": -2.648211, "lat": 52.080917 }, "geometry": { "type": "Point", "coordinates": [ -2.6482114, 52.0809169 ] } },
{ "type": "Feature", "id": 106, "properties": { "Name": "Brooklyn Toyota Hereford", "Postcode": "HR2 8BT ", "lon": -2.732961, "lat": 52.015579 }, "geometry": { "type": "Point", "coordinates": [ -2.7329608, 52.0155786 ] } },
{ "type": "Feature", "id": 107, "properties": { "Name": "Hull John Roe", "Postcode": "HU4 7DY ", "lon": -0.411697, "lat": 53.723846 }, "geometry": { "type": "Point", "coordinates": [ -0.4116971, 53.7238456 ] } },
{ "type": "Feature", "id": 108, "properties": { "Name": "Browns Toyota", "Postcode": "HP10 0NJ ", "lon": -0.689127, "lat": 51.603280 }, "geometry": { "type": "Point", "coordinates": [ -0.6891271, 51.6032799 ] } },
{ "type": "Feature", "id": 109, "properties": { "Name": "Marsh Honiton", "Postcode": "EX14 1JT ", "lon": -3.178231, "lat": 50.803302 }, "geometry": { "type": "Point", "coordinates": [ -3.1782313, 50.8033023 ] } },
{ "type": "Feature", "id": 110, "properties": { "Name": "Toll House (Horsham)", "Postcode": "RH13 0SY ", "lon": -0.376286, "lat": 51.063236 }, "geometry": { "type": "Point", "coordinates": [ -0.3762862, 51.0632361 ] } },
{ "type": "Feature", "id": 111, "properties": { "Name": "West Riding Toyota Huddersfield", "Postcode": "HD2 1YY ", "lon": -1.755135, "lat": 53.663400 }, "geometry": { "type": "Point", "coordinates": [ -1.7551345, 53.6634004 ] } },
{ "type": "Feature", "id": 112, "properties": { "Name": "Ron Brooks", "Postcode": "DE7 5FH ", "lon": -1.310161, "lat": 52.966960 }, "geometry": { "type": "Point", "coordinates": [ -1.3101606, 52.9669597 ] } },
{ "type": "Feature", "id": 113, "properties": { "Name": "Corrie Motors", "Postcode": "IV1 1UF ", "lon": -4.208556, "lat": 57.484972 }, "geometry": { "type": "Point", "coordinates": [ -4.2085556, 57.4849718 ] } },
{ "type": "Feature", "id": 114, "properties": { "Name": "Ipswich Toyota", "Postcode": "IP3 9SS ", "lon": 1.207465, "lat": 52.026630 }, "geometry": { "type": "Point", "coordinates": [ 1.2074648, 52.0266299 ] } },
{ "type": "Feature", "id": 115, "properties": { "Name": "Currie Motors", "Postcode": "TW7 6DS ", "lon": -0.333707, "lat": 51.467324 }, "geometry": { "type": "Point", "coordinates": [ -0.3337074, 51.467324 ] } },
{ "type": "Feature", "id": 116, "properties": { "Name": "Currie Motors", "Postcode": "TW7 6DS ", "lon": -0.333707, "lat": 51.467324 }, "geometry": { "type": "Point", "coordinates": [ -0.3337074, 51.467324 ] } },
{ "type": "Feature", "id": 117, "properties": { "Name": "West Riding Toyota Keighley", "Postcode": "BD20 0HA ", "lon": -1.935388, "lat": 53.911584 }, "geometry": { "type": "Point", "coordinates": [ -1.9353879, 53.9115841 ] } },
{ "type": "Feature", "id": 118, "properties": { "Name": "Arnold Clark (Kilmarnock)", "Postcode": "KA3 1NJ ", "lon": -4.504650, "lat": 55.617999 }, "geometry": { "type": "Point", "coordinates": [ -4.5046497, 55.6179986 ] } },
{ "type": "Feature", "id": 119, "properties": { "Name": "Marshall Toyota (Kings Lynn)", "Postcode": "PE30 4JH ", "lon": 0.416544, "lat": 52.740205 }, "geometry": { "type": "Point", "coordinates": [ 0.4165437, 52.7402046 ] } },
{ "type": "Feature", "id": 120, "properties": { "Name": "Knaresborough Toyota", "Postcode": "HG5 0SS ", "lon": -1.435700, "lat": 54.006941 }, "geometry": { "type": "Point", "coordinates": [ -1.4357002, 54.006941 ] } },
{ "type": "Feature", "id": 121, "properties": { "Name": "Benfield Toyota (Leeds)", "Postcode": "LS12 6HG ", "lon": -1.570246, "lat": 53.787114 }, "geometry": { "type": "Point", "coordinates": [ -1.5702464, 53.7871141 ] } },
{ "type": "Feature", "id": 122, "properties": { "Name": "Sturgess", "Postcode": "LE2 7QN ", "lon": -1.139531, "lat": 52.617270 }, "geometry": { "type": "Point", "coordinates": [ -1.1395305, 52.617269699999987 ] } },
{ "type": "Feature", "id": 123, "properties": { "Name": "Farmer & Carlisle (Leicester)", "Postcode": "LE2 6BE ", "lon": -1.131798, "lat": 52.622877 }, "geometry": { "type": "Point", "coordinates": [ -1.1317979, 52.6228771 ] } },
{ "type": "Feature", "id": 124, "properties": { "Name": "Jim's Garage", "Postcode": "ZE1 0PX ", "lon": -1.166152, "lat": 60.169353 }, "geometry": { "type": "Point", "coordinates": [ -1.1661518, 60.169352599999989 ] } },
{ "type": "Feature", "id": 125, "properties": { "Name": "Eden Bridge", "Postcode": "SG6 1EF ", "lon": -0.220366, "lat": 51.984027 }, "geometry": { "type": "Point", "coordinates": [ -0.2203662, 51.9840274 ] } },
{ "type": "Feature", "id": 126, "properties": { "Name": "Listers Toyota Lincoln", "Postcode": "LN2 4LD ", "lon": -0.509181, "lat": 53.237778 }, "geometry": { "type": "Point", "coordinates": [ -0.5091809, 53.2377782 ] } },
{ "type": "Feature", "id": 127, "properties": { "Name": "Premier Toyota", "Postcode": "LL31 9NX ", "lon": -3.793099, "lat": 53.280813 }, "geometry": { "type": "Point", "coordinates": [ -3.7930995, 53.2808128 ] } },
{ "type": "Feature", "id": 128, "properties": { "Name": "Jemca (Kingston)", "Postcode": "SW20 0AD ", "lon": -0.251891, "lat": 51.415604 }, "geometry": { "type": "Point", "coordinates": [ -0.2518911, 51.415604 ] } },
{ "type": "Feature", "id": 129, "properties": { "Name": "Jemca (Edgware Road)", "Postcode": "NW9 6BH ", "lon": -0.242658, "lat": 51.580791 }, "geometry": { "type": "Point", "coordinates": [ -0.2426585, 51.5807915 ] } },
{ "type": "Feature", "id": 130, "properties": { "Name": "Jemca (Seven Sisters Road)", "Postcode": "N15 6HR ", "lon": -0.082769, "lat": 51.577290 }, "geometry": { "type": "Point", "coordinates": [ -0.0827687, 51.5772901 ] } },
{ "type": "Feature", "id": 131, "properties": { "Name": "Farmer & Carlisle (Loughborough)", "Postcode": "LE11 1ND ", "lon": -1.211008, "lat": 52.778829 }, "geometry": { "type": "Point", "coordinates": [ -1.2110079, 52.7788294 ] } },
{ "type": "Feature", "id": 132, "properties": { "Name": "Dingle's Toyota (Lowestoft)", "Postcode": "NR33 0AS ", "lon": 1.747082, "lat": 52.470921 }, "geometry": { "type": "Point", "coordinates": [ 1.7470816, 52.470921399999987 ] } },
{ "type": "Feature", "id": 133, "properties": { "Name": "Steven Eagell Toyota (Luton)", "Postcode": "LU1 3BH ", "lon": -0.417476, "lat": 51.862101 }, "geometry": { "type": "Point", "coordinates": [ -0.4174763, 51.8621011 ] } },
{ "type": "Feature", "id": 134, "properties": { "Name": "RRG Macclesfield", "Postcode": "SK10 2AB ", "lon": -2.124977, "lat": 53.263517 }, "geometry": { "type": "Point", "coordinates": [ -2.124977, 53.263517 ] } },
{ "type": "Feature", "id": 135, "properties": { "Name": "Border Toyota (St Boswells)", "Postcode": "TD6 0EW ", "lon": -2.651358, "lat": 55.569297 }, "geometry": { "type": "Point", "coordinates": [ -2.651358, 55.5692974 ] } },
{ "type": "Feature", "id": 136, "properties": { "Name": "Steven Eagell Toyota (Milton Keynes)", "Postcode": "MK6 4AG ", "lon": -0.744530, "lat": 52.014275 }, "geometry": { "type": "Point", "coordinates": [ -0.7445298, 52.0142752 ] } },
{ "type": "Feature", "id": 137, "properties": { "Name": "Hodgson Toyota Newcastle", "Postcode": "NE28 9ND ", "lon": -1.495779, "lat": 55.012655 }, "geometry": { "type": "Point", "coordinates": [ -1.4957791, 55.012655300000013 ] } },
{ "type": "Feature", "id": 138, "properties": { "Name": "Toyota World (Newport)", "Postcode": "NP20 2NN ", "lon": -3.004526, "lat": 51.569745 }, "geometry": { "type": "Point", "coordinates": [ -3.0045259, 51.5697449 ] } },
{ "type": "Feature", "id": 139, "properties": { "Name": "Charles Hurst Toyota Newtownabbey", "Postcode": "BT36 5EE ", "lon": -5.969305, "lat": 54.675694 }, "geometry": { "type": "Point", "coordinates": [ -5.9693048, 54.6756943 ] } },
{ "type": "Feature", "id": 140, "properties": { "Name": "RMB Toyota (Northallerton)", "Postcode": "DL6 2NA ", "lon": -1.441179, "lat": 54.350182 }, "geometry": { "type": "Point", "coordinates": [ -1.4411794, 54.350181799999987 ] } },
{ "type": "Feature", "id": 141, "properties": { "Name": "Sims Toyota", "Postcode": "NN3 9HX ", "lon": -0.833255, "lat": 52.241993 }, "geometry": { "type": "Point", "coordinates": [ -0.8332545, 52.2419929 ] } },
{ "type": "Feature", "id": 142, "properties": { "Name": "Oakmere Toyota", "Postcode": "CW9 7NA ", "lon": -2.484039, "lat": 53.265413 }, "geometry": { "type": "Point", "coordinates": [ -2.4840392, 53.2654128 ] } },
{ "type": "Feature", "id": 143, "properties": { "Name": "Inchcape (Nottingham)", "Postcode": "NG7 2GQ ", "lon": -1.180914, "lat": 52.949177 }, "geometry": { "type": "Point", "coordinates": [ -1.1809143, 52.949176599999987 ] } },
{ "type": "Feature", "id": 144, "properties": { "Name": "Listers Toyota (Nuneaton)", "Postcode": "CV10 7RF ", "lon": -1.477178, "lat": 52.509563 }, "geometry": { "type": "Point", "coordinates": [ -1.4771782, 52.5095632 ] } },
{ "type": "Feature", "id": 145, "properties": { "Name": "Inchcape (Oxford)", "Postcode": "OX5 1FJ ", "lon": -1.307560, "lat": 51.829183 }, "geometry": { "type": "Point", "coordinates": [ -1.3075599, 51.8291834 ] } },
{ "type": "Feature", "id": 146, "properties": { "Name": "Marsh Torbay", "Postcode": "TQ3 3RE ", "lon": -3.572773, "lat": 50.432101 }, "geometry": { "type": "Point", "coordinates": [ -3.5727731, 50.4321012 ] } },
{ "type": "Feature", "id": 147, "properties": { "Name": "Arnold Clark (Paisley)", "Postcode": "PA1 2BH ", "lon": -4.473735, "lat": 55.846700 }, "geometry": { "type": "Point", "coordinates": [ -4.4737349, 55.846700299999988 ] } },
{ "type": "Feature", "id": 148, "properties": { "Name": "Jim Walton", "Postcode": "CA11 9BN ", "lon": -2.770895, "lat": 54.666689 }, "geometry": { "type": "Point", "coordinates": [ -2.7708946, 54.6666886 ] } },
{ "type": "Feature", "id": 149, "properties": { "Name": "Struan", "Postcode": "PH1 2SJ ", "lon": -3.481690, "lat": 56.406738 }, "geometry": { "type": "Point", "coordinates": [ -3.4816898, 56.4067381 ] } },
{ "type": "Feature", "id": 150, "properties": { "Name": "Marshall of Peterborough", "Postcode": "PE1 5AU ", "lon": -0.221409, "lat": 52.574370 }, "geometry": { "type": "Point", "coordinates": [ -0.2214085, 52.574370300000012 ] } },
{ "type": "Feature", "id": 151, "properties": { "Name": "Marsh Plymouth", "Postcode": "PL7 5JY ", "lon": -4.020589, "lat": 50.385816 }, "geometry": { "type": "Point", "coordinates": [ -4.020589, 50.3858158 ] } },
{ "type": "Feature", "id": 152, "properties": { "Name": "Shelbourne Motors", "Postcode": "BT62 3RB ", "lon": -6.442160, "lat": 54.393294 }, "geometry": { "type": "Point", "coordinates": [ -6.4421602, 54.393294 ] } },
{ "type": "Feature", "id": 153, "properties": { "Name": "Vantage Toyota Preston", "Postcode": "PR2 2TY ", "lon": -2.761046, "lat": 53.761045 }, "geometry": { "type": "Point", "coordinates": [ -2.7610465, 53.761045499999987 ] } },
{ "type": "Feature", "id": 154, "properties": { "Name": "Octagon Toyota Reading", "Postcode": "RG2 0LJ ", "lon": -0.971208, "lat": 51.436038 }, "geometry": { "type": "Point", "coordinates": [ -0.9712085, 51.4360383 ] } },
{ "type": "Feature", "id": 155, "properties": { "Name": "Abbey", "Postcode": "RH1 2NB ", "lon": -0.157145, "lat": 51.248839 }, "geometry": { "type": "Point", "coordinates": [ -0.157145, 51.248839 ] } },
{ "type": "Feature", "id": 156, "properties": { "Name": "RRG Rochdale", "Postcode": "OL11 2NQ ", "lon": -2.164183, "lat": 53.599541 }, "geometry": { "type": "Point", "coordinates": [ -2.1641833, 53.5995412 ] } },
{ "type": "Feature", "id": 157, "properties": { "Name": "Lookers Romford", "Postcode": "RM3 0DZ ", "lon": 0.217151, "lat": 51.591089 }, "geometry": { "type": "Point", "coordinates": [ 0.2171509, 51.591089 ] } },
{ "type": "Feature", "id": 158, "properties": { "Name": "Pentagon Rotherham", "Postcode": "S60 1DS ", "lon": -1.365416, "lat": 53.424188 }, "geometry": { "type": "Point", "coordinates": [ -1.3654162, 53.4241884 ] } },
{ "type": "Feature", "id": 159, "properties": { "Name": "Motorline Tunbridge Wells", "Postcode": "TN2 3UY ", "lon": 0.285098, "lat": 51.155214 }, "geometry": { "type": "Point", "coordinates": [ 0.2850978, 51.1552145 ] } },
{ "type": "Feature", "id": 160, "properties": { "Name": "RRG Salford Quays", "Postcode": "M5 4AP ", "lon": -2.280775, "lat": 53.480785 }, "geometry": { "type": "Point", "coordinates": [ -2.2807746, 53.480785399999988 ] } },
{ "type": "Feature", "id": 162, "properties": { "Name": "Inchcape (Sandhurst)", "Postcode": "GU47 8HA ", "lon": -0.810901, "lat": 51.347758 }, "geometry": { "type": "Point", "coordinates": [ -0.8109013, 51.3477578 ] } },
{ "type": "Feature", "id": 163, "properties": { "Name": "Wight Motors", "Postcode": "PO36 8EB ", "lon": -1.150160, "lat": 50.661008 }, "geometry": { "type": "Point", "coordinates": [ -1.1501604, 50.661007899999987 ] } },
{ "type": "Feature", "id": 164, "properties": { "Name": "Scunthorpe John Roe", "Postcode": "DN16 1BT ", "lon": -0.625774, "lat": 53.576628 }, "geometry": { "type": "Point", "coordinates": [ -0.6257742, 53.576628199999988 ] } },
{ "type": "Feature", "id": 165, "properties": { "Name": "Gordon Lamb Sheffield", "Postcode": "S2 4RN ", "lon": -1.470074, "lat": 53.366425 }, "geometry": { "type": "Point", "coordinates": [ -1.4700739, 53.3664248 ] } },
{ "type": "Feature", "id": 166, "properties": { "Name": "Pentagon Sheffield", "Postcode": "S6 2FQ ", "lon": -1.488215, "lat": 53.400104 }, "geometry": { "type": "Point", "coordinates": [ -1.4882151, 53.400103599999987 ] } },
{ "type": "Feature", "id": 167, "properties": { "Name": "William A Lewis (Shrewsbury)", "Postcode": "SY1 3AD ", "lon": -2.737231, "lat": 52.730133 }, "geometry": { "type": "Point", "coordinates": [ -2.7372308, 52.7301332 ] } },
{ "type": "Feature", "id": 168, "properties": { "Name": "Jemca (Sidcup)", "Postcode": "DA14 4QH ", "lon": 0.107978, "lat": 51.424905 }, "geometry": { "type": "Point", "coordinates": [ 0.1079783, 51.4249051 ] } },
{ "type": "Feature", "id": 169, "properties": { "Name": "Stadium", "Postcode": "SA10 6RF ", "lon": -3.856022, "lat": 51.659602 }, "geometry": { "type": "Point", "coordinates": [ -3.8560219, 51.6596016 ] } },
{ "type": "Feature", "id": 170, "properties": { "Name": "RCS 900", "Postcode": "SL1 4PF ", "lon": -0.623120, "lat": 51.521687 }, "geometry": { "type": "Point", "coordinates": [ -0.6231203, 51.5216866 ] } },
{ "type": "Feature", "id": 171, "properties": { "Name": "Kings Toyota Southampton", "Postcode": "SO15 0LD ", "lon": -1.450686, "lat": 50.913697 }, "geometry": { "type": "Point", "coordinates": [ -1.4506861, 50.913697 ] } },
{ "type": "Feature", "id": 172, "properties": { "Name": "Andrew Rowley Toyota", "Postcode": "AL2 2JX ", "lon": -0.333510, "lat": 51.714561 }, "geometry": { "type": "Point", "coordinates": [ -0.33351, 51.7145614 ] } },
{ "type": "Feature", "id": 173, "properties": { "Name": "TNS St Ives", "Postcode": "PE27 5RE ", "lon": -0.075412, "lat": 52.331992 }, "geometry": { "type": "Point", "coordinates": [ -0.0754119, 52.3319923 ] } },
{ "type": "Feature", "id": 174, "properties": { "Name": "St Leonards Motors Toyota", "Postcode": "TN37 7SQ ", "lon": 0.549001, "lat": 50.887294 }, "geometry": { "type": "Point", "coordinates": [ 0.5490015, 50.8872943 ] } },
{ "type": "Feature", "id": 175, "properties": { "Name": "Freelance Toyota", "Postcode": "JE2 7SA ", "lon": -2.117958, "lat": 49.215290 }, "geometry": { "type": "Point", "coordinates": [ -2.1179576, 49.215290499999988 ] } },
{ "type": "Feature", "id": 176, "properties": { "Name": "W R Davies", "Postcode": "ST17 4LF ", "lon": -2.111410, "lat": 52.802083 }, "geometry": { "type": "Point", "coordinates": [ -2.1114103, 52.802083 ] } },
{ "type": "Feature", "id": 177, "properties": { "Name": "Arnold Clark (Stirling)", "Postcode": "FK7 7RY ", "lon": -3.927438, "lat": 56.112224 }, "geometry": { "type": "Point", "coordinates": [ -3.9274377, 56.112224 ] } },
{ "type": "Feature", "id": 178, "properties": { "Name": "RRG Stockport", "Postcode": "SK1 4AH ", "lon": -2.149520, "lat": 53.405249 }, "geometry": { "type": "Point", "coordinates": [ -2.1495196, 53.4052489 ] } },
{ "type": "Feature", "id": 179, "properties": { "Name": "Pinkstones", "Postcode": "ST4 4DD ", "lon": -2.173566, "lat": 52.985831 }, "geometry": { "type": "Point", "coordinates": [ -2.173566, 52.9858312 ] } },
{ "type": "Feature", "id": 180, "properties": { "Name": "T G Holdcroft", "Postcode": "ST1 6AT ", "lon": -2.152262, "lat": 53.027139 }, "geometry": { "type": "Point", "coordinates": [ -2.152262, 53.027138699999988 ] } },
{ "type": "Feature", "id": 181, "properties": { "Name": "Westlands", "Postcode": "DY8 4BP ", "lon": -2.149657, "lat": 52.471543 }, "geometry": { "type": "Point", "coordinates": [ -2.1496568, 52.4715426 ] } },
{ "type": "Feature", "id": 182, "properties": { "Name": "Murley Auto Stratford", "Postcode": "CV37 0AH ", "lon": -1.714594, "lat": 52.196104 }, "geometry": { "type": "Point", "coordinates": [ -1.7145941, 52.1961036 ] } },
{ "type": "Feature", "id": 183, "properties": { "Name": "Pinewood Streatham", "Postcode": "SW2 1NR ", "lon": -0.123827, "lat": 51.446150 }, "geometry": { "type": "Point", "coordinates": [ -0.1238267, 51.4461502 ] } },
{ "type": "Feature", "id": 184, "properties": { "Name": "Minories Wearside", "Postcode": "SR5 1JE ", "lon": -1.382168, "lat": 54.916274 }, "geometry": { "type": "Point", "coordinates": [ -1.382168, 54.916274 ] } },
{ "type": "Feature", "id": 185, "properties": { "Name": "FRF Motors (Swansea) [Toyota]", "Postcode": "SA6 8HF ", "lon": -3.924952, "lat": 51.657718 }, "geometry": { "type": "Point", "coordinates": [ -3.9249525, 51.6577182 ] } },
{ "type": "Feature", "id": 186, "properties": { "Name": "Fish Brothers", "Postcode": "SN5 7RX ", "lon": -1.810035, "lat": 51.555506 }, "geometry": { "type": "Point", "coordinates": [ -1.810035, 51.5555055 ] } },
{ "type": "Feature", "id": 187, "properties": { "Name": "RRG Swinton", "Postcode": "M27 9LL ", "lon": -2.354262, "lat": 53.511375 }, "geometry": { "type": "Point", "coordinates": [ -2.3542619, 53.5113755 ] } },
{ "type": "Feature", "id": 188, "properties": { "Name": "Toyota World (Tamworth)", "Postcode": "B78 3LT ", "lon": -1.699493, "lat": 52.629568 }, "geometry": { "type": "Point", "coordinates": [ -1.6994926, 52.6295684 ] } },
{ "type": "Feature", "id": 189, "properties": { "Name": "Somerset County Cars", "Postcode": "TA2 8DN ", "lon": -3.088096, "lat": 51.027494 }, "geometry": { "type": "Point", "coordinates": [ -3.0880964, 51.0274937 ] } },
{ "type": "Feature", "id": 190, "properties": { "Name": "William A Lewis (Telford)", "Postcode": "TF3 3EN ", "lon": -2.435799, "lat": 52.672478 }, "geometry": { "type": "Point", "coordinates": [ -2.4357985, 52.6724779 ] } },
{ "type": "Feature", "id": 191, "properties": { "Name": "Platinum Trowbridge", "Postcode": "BA14 0BJ ", "lon": -2.197344, "lat": 51.296292 }, "geometry": { "type": "Point", "coordinates": [ -2.1973437, 51.2962919 ] } },
{ "type": "Feature", "id": 192, "properties": { "Name": "Parklands Toyota", "Postcode": "TR8 5AY ", "lon": -5.025529, "lat": 50.347386 }, "geometry": { "type": "Point", "coordinates": [ -5.0255288, 50.3473863 ] } },
{ "type": "Feature", "id": 193, "properties": { "Name": "SLM Toyota Uckfield", "Postcode": "TN22 1PH ", "lon": 0.082447, "lat": 50.968321 }, "geometry": { "type": "Point", "coordinates": [ 0.0824468, 50.9683212 ] } },
{ "type": "Feature", "id": 194, "properties": { "Name": "Benfield Toyota (Wakefield)", "Postcode": "WF5 9TJ ", "lon": -1.548023, "lat": 53.682770 }, "geometry": { "type": "Point", "coordinates": [ -1.5480228, 53.6827701 ] } },
{ "type": "Feature", "id": 195, "properties": { "Name": "Johnsons Toyota Wirral", "Postcode": "CH44 3EQ ", "lon": -3.055112, "lat": 53.412347 }, "geometry": { "type": "Point", "coordinates": [ -3.0551116, 53.412346799999987 ] } },
{ "type": "Feature", "id": 196, "properties": { "Name": "Bentleys Warrington", "Postcode": "WA1 3LR ", "lon": -2.555582, "lat": 53.396939 }, "geometry": { "type": "Point", "coordinates": [ -2.5555822, 53.3969392 ] } },
{ "type": "Feature", "id": 197, "properties": { "Name": "WKB Toyota Waterlooville", "Postcode": "PO7 7XW ", "lon": -1.039218, "lat": 50.884958 }, "geometry": { "type": "Point", "coordinates": [ -1.0392177, 50.8849583 ] } },
{ "type": "Feature", "id": 198, "properties": { "Name": "Andrew Rowley Toyota (Watford)", "Postcode": "WD18 8AD ", "lon": -0.424706, "lat": 51.647876 }, "geometry": { "type": "Point", "coordinates": [ -0.4247058, 51.6478762 ] } },
{ "type": "Feature", "id": 200, "properties": { "Name": "Howards Toyota", "Postcode": "BS24 0JW ", "lon": -2.945890, "lat": 51.289183 }, "geometry": { "type": "Point", "coordinates": [ -2.9458896, 51.2891833 ] } },
{ "type": "Feature", "id": 201, "properties": { "Name": "H W Moon", "Postcode": "WN5 0LD ", "lon": -2.674304, "lat": 53.553008 }, "geometry": { "type": "Point", "coordinates": [ -2.6743036, 53.553008299999988 ] } },
{ "type": "Feature", "id": 202, "properties": { "Name": "Charles Clark Toyota", "Postcode": "WV2 2QE ", "lon": -2.111670, "lat": 52.579499 }, "geometry": { "type": "Point", "coordinates": [ -2.1116703, 52.579499299999988 ] } },
{ "type": "Feature", "id": 203, "properties": { "Name": "Hills of Woodford", "Postcode": "IG8 0PR ", "lon": 0.026420, "lat": 51.616695 }, "geometry": { "type": "Point", "coordinates": [ 0.0264203, 51.6166953 ] } },
{ "type": "Feature", "id": 204, "properties": { "Name": "Brooklyn Toyota Worcester", "Postcode": "WR3 8UA ", "lon": -2.197824, "lat": 52.215234 }, "geometry": { "type": "Point", "coordinates": [ -2.1978244, 52.2152336 ] } },
{ "type": "Feature", "id": 205, "properties": { "Name": "Myers & Bowman", "Postcode": "CA14 4PE ", "lon": -3.532383, "lat": 54.604209 }, "geometry": { "type": "Point", "coordinates": [ -3.532383, 54.6042091 ] } },
{ "type": "Feature", "id": 206, "properties": { "Name": "L & S Copcutt & Son", "Postcode": "S80 2QD ", "lon": -1.096099, "lat": 53.302335 }, "geometry": { "type": "Point", "coordinates": [ -1.0960985, 53.3023353 ] } },
{ "type": "Feature", "id": 207, "properties": { "Name": "Yeomans (Worthing)", "Postcode": "BN13 3NS ", "lon": -0.425014, "lat": 50.824644 }, "geometry": { "type": "Point", "coordinates": [ -0.4250138, 50.824643599999987 ] } },
{ "type": "Feature", "id": 208, "properties": { "Name": "Lindop Bros Wrexham", "Postcode": "LL11 4BA ", "lon": -3.004453, "lat": 53.077002 }, "geometry": { "type": "Point", "coordinates": [ -3.0044532, 53.0770018 ] } },
{ "type": "Feature", "id": 209, "properties": { "Name": "RMB Toyota (Teesside)", "Postcode": "TS15 9JT ", "lon": -1.298533, "lat": 54.508961 }, "geometry": { "type": "Point", "coordinates": [ -1.2985326, 54.508960599999988 ] } },
{ "type": "Feature", "id": 210, "properties": { "Name": "Loders Yeovil", "Postcode": "BA22 8RU ", "lon": -2.673853, "lat": 50.946602 }, "geometry": { "type": "Point", "coordinates": [ -2.6738529, 50.9466018 ] } },
{ "type": "Feature", "id": 211, "properties": { "Name": "York Toyota", "Postcode": "YO30 4WR ", "lon": -1.096194, "lat": 53.985724 }, "geometry": { "type": "Point", "coordinates": [ -1.0961937, 53.9857241 ] } }
]
}
